location,latitude,longitude,elevation_m,slope_degrees,slope_percent,aspect_degrees,aspect_direction
Banjara Hills (India),17.4156,78.4347,588.4,3.56,6.22,99.1,E
London (UK),51.5074,-0.1278,4.8,9.41,16.58,29.0,NE
Dubai (UAE),25.2048,55.2708,9.2,6.77,11.88,217.8,SW
Pacific Ocean,0.0,-140.0,0.0,0.0,0.0,0.0,N
Denver (USA),39.7392,-104.9903,1596.5,4.66,8.15,8.5,N
Cape Town (South Africa),-33.9249,18.4241,9.6,9.39,16.54,44.9,NE
Sydney (Australia),-33.8688,151.2093,84.6,12.05,21.35,226.6,SW
